[
  {"name": "CEFERESO No. 1 (Altiplano)", "lat": 19.3035, "lng": -99.5840, "type": "federal_max", "state": "Estado de México", "notes": "Maximum security, El Chapo held here"},
  {"name": "CEFERESO No. 2 (Occidente)", "lat": 20.5390, "lng": -103.4475, "type": "federal_max", "state": "Jalisco", "notes": "Maximum security"},
  {"name": "CEFERESO No. 3 (Noreste)", "lat": 23.7360, "lng": -99.1500, "type": "federal_max", "state": "Tamaulipas", "notes": "Maximum security"},
  {"name": "CEFERESO No. 4 (Noroeste)", "lat": 31.5610, "lng": -106.5640, "type": "federal_max", "state": "Chihuahua", "notes": "Maximum security, near border"},
  {"name": "CEFERESO No. 5 (Oriente)", "lat": 19.1810, "lng": -96.2370, "type": "federal_max", "state": "Veracruz", "notes": "Federal maximum security"},
  {"name": "CEFERESO No. 6 (Sureste)", "lat": 18.5330, "lng": -88.3870, "type": "federal_med", "state": "Quintana Roo", "notes": "Federal medium security"},
  {"name": "CEFERESO No. 7 (Nor-Noroeste)", "lat": 24.0260, "lng": -104.6640, "type": "federal_med", "state": "Durango", "notes": "Federal medium security"},
  {"name": "CEFERESO No. 8 (Nor-Poniente)", "lat": 25.5240, "lng": -103.4520, "type": "federal_med", "state": "Coahuila", "notes": "Federal medium security"},
  {"name": "CEFERESO No. 9 (Norte)", "lat": 31.6900, "lng": -106.4240, "type": "federal_med", "state": "Chihuahua", "notes": "Federal medium security"},
  {"name": "CEFERESO No. 11 (CPS Sonora)", "lat": 29.1150, "lng": -110.9940, "type": "federal_med", "state": "Sonora", "notes": "Federal medium security"},
  {"name": "CEFERESO No. 12 (CPS Guanajuato)", "lat": 21.1320, "lng": -101.6830, "type": "federal_med", "state": "Guanajuato", "notes": "Federal medium security"},
  {"name": "CEFERESO No. 13 (CPS Oaxaca)", "lat": 16.8500, "lng": -96.6640, "type": "federal_med", "state": "Oaxaca", "notes": "Federal medium security"},
  {"name": "CEFERESO No. 14 (CPS Durango)", "lat": 23.9410, "lng": -105.1520, "type": "federal_med", "state": "Durango", "notes": "Federal medium security"},
  {"name": "CEFERESO No. 15 (CPS Chiapas)", "lat": 16.7550, "lng": -93.3650, "type": "federal_med", "state": "Chiapas", "notes": "Federal medium security"},
  {"name": "CEFERESO No. 16 (CPS Morelos)", "lat": 18.7750, "lng": -99.2260, "type": "federal_fem", "state": "Morelos", "notes": "Female federal prison"},
  {"name": "CEFERESO No. 17 (CPS Michoacán)", "lat": 19.7050, "lng": -101.1840, "type": "federal_med", "state": "Michoacán", "notes": "Federal medium security"},
  {"name": "CEFERESO No. 18 (CPS Coahuila)", "lat": 25.3600, "lng": -101.0080, "type": "federal_med", "state": "Coahuila", "notes": "Federal medium security"},
  {"name": "Islas Marías (closed 2019)", "lat": 21.6262, "lng": -106.5669, "type": "historical", "state": "Nayarit", "notes": "Historic penal colony, now cultural center"},
  {"name": "Reclusorio Norte CDMX", "lat": 19.5154, "lng": -99.0893, "type": "state", "state": "Ciudad de México", "notes": "Largest prison in Mexico City"},
  {"name": "Reclusorio Sur CDMX", "lat": 19.3164, "lng": -99.1210, "type": "state", "state": "Ciudad de México", "notes": "Major Mexico City prison"},
  {"name": "Reclusorio Oriente CDMX", "lat": 19.3892, "lng": -99.0243, "type": "state", "state": "Ciudad de México", "notes": "Mexico City eastern prison"},
  {"name": "Penal de Puente Grande", "lat": 20.6285, "lng": -103.3970, "type": "state_max", "state": "Jalisco", "notes": "El Chapo 2001 escape location"},
  {"name": "CERESO Culiacán", "lat": 24.7990, "lng": -107.3850, "type": "state", "state": "Sinaloa", "notes": "Sinaloa state prison"},
  {"name": "CERESO Apodaca (Monterrey)", "lat": 25.7720, "lng": -100.2130, "type": "state", "state": "Nuevo León", "notes": "2012 mass escape incident"},
  {"name": "CERESO Piedras Negras", "lat": 28.7100, "lng": -100.5230, "type": "state", "state": "Coahuila", "notes": "Border region prison"},
  {"name": "CERESO Ciudad Juárez", "lat": 31.6120, "lng": -106.3850, "type": "state", "state": "Chihuahua", "notes": "Border city prison"},
  {"name": "Centro de Reinserción Social Cancún", "lat": 21.1280, "lng": -86.8310, "type": "state", "state": "Quintana Roo", "notes": "Tourist zone prison"},
  {"name": "CERESO Acapulco", "lat": 16.8590, "lng": -99.8550, "type": "state", "state": "Guerrero", "notes": "Guerrero state prison"}
]
